[
  {
    "coordinate": {
      "latitude": 52.237049,
      "longitude": 21.017532
    },
    "id": "bd7acbea-c1b1-46c2-aed5-3ad53abb28ba",
    "title": "Kurwiarnia Kaffka",
    "adress": "ul. Kowalskiego 23/4",
    "image": "https://lh3.googleusercontent.com/a-/AOh14GgTjQ8nbk-NXcnbJ7MPC8WT7GgUradCS-vve8qX9A?sz=110"
  },
  {
    "coordinate": {
      "latitude": 52.2368434,
      "longitude": 21.0246758
    },
    "id": "3ac68afc-c605-48d3-a4f8-fbd91aa97f63",
    "title": "Restauracja pod ziębem",
    "adress": "Jedzenie o niezwykłym i niepowtarzalnym smaku",
    "image": "https://sethlui.com/wp-content/uploads/2016/12/LCP-Storefront-800x533.jpg"
  },
  {
    "coordinate": {
      "latitude": 52.2443416,
      "longitude": 21.0777183
    },
    "id": "3ac68aec-c605-48d3-a4f8-fbd91aa97e63",
    "title": "Explosion Club",
    "adress": "Codziennie imprezy i głośna muzyka",
    "image": "https://i.pinimg.com/474x/1f/cd/49/1fcd498093147903bfa0de00a3ac9e7c.jpg"
  },
  {
    "coordinate": {
      "latitude": 52.22440254999999,
      "longitude": 21.215458473095623
    },
    "id": "52.1980d91aa97e6093269",
    "title": "Bar na Wspólnej",
    "adress": "Bar jakiego jeszcze nie widziałeś",
    "image": "https://mayordave.org.uk/en/image/61G9fL/hot-dog-stand.png"
  },
  {
    "coordinate": {
      "latitude": 52.05972871101625,
      "longitude": 20.874059787128914
    },
    "id": "3ac68afc-c605-48d3-ad91aa97e6aa97f63",
    "title": "Restauracja pod ziębem",
    "adress": "Jedzenie o niezwykłym i niepowtarzalnym smaku",
    "image": "https://sethlui.com/wp-content/uploads/2016/12/LCP-Storefront-800x533.jpg"
  },
  {
    "coordinate": {
      "latitude": 52.04488139874107,
      "longitude": 21.289787116222072
    },
    "id": "3ac68d91aa97e6605-48d3-a4f8-fbd91aa97e63",
    "title": "Explosion Club",
    "adress": "Codziennie imprezy i głośna muzyka",
    "image": "https://i.pinimg.com/474x/1f/cd/49/1fcd498093147903bfa0de00a3ac9e7c.jpg"
  },
  {
    "coordinate": {
      "latitude": 52.28350587715758,
      "longitude": 21.311250294815636
    },
    "id": "3ac62sfcd91aa97e6d3-a4f8-fbd91aa93f63",
    "title": "Bar na Wspólnej",
    "adress": "Bar jakiego jeszcze nie widziałeś",
    "image": "https://mayordave.org.uk/en/image/61G9fL/hot-dog-stand.png"
  }
]